[
    {
        "id": 10002,
        "name": "John, Smith",
        "address": "PHOENIX, PETIT CAMP, PETIT CAMP",
        "location": {
            "lat": 48.7688,
            "long": -3.42632
        }
    },
    {
        "id": 10003,
        "name": "Emily, Johnson",
        "address": "ALLEE TAMARIN, BAMBOUS, BAMBOUS",
        "location": {
            "lat": -20.26014,
            "long": 57.41252
        }
    },
    {
        "id": 10004,
        "name": "Michael, Williams",
        "address": "63, DESFORGES STREET, PORT LOUIS, PORT LOUIS",
        "location": {
            "lat": -26.18651,
            "long": 27.8016
        }
    },
    {
        "id": 10005,
        "name": "Sarah, Brown",
        "address": "LA CLEMENCE, RIVIERE DU REMPART, RIVIERE DU REMPART",
        "location": {
            "lat": -20.10848,
            "long": 57.69236
        }
    },
    {
        "id": 10006,
        "name": "David, Jones",
        "address": "ROYAL ROAD BANANES, CLUNY, BANANES",
        "location": {
            "lat": -20.36248,
            "long": 57.60589
        }
    },
    {
        "id": 10007,
        "name": "Laura, Davis",
        "address": "AVENUE LUCHMUN, PALMA, QUATRE BORNES",
        "location": {
            "lat": -20.27873,
            "long": 57.45907
        }
    },
    {
        "id": 10008,
        "name": "William, Garcia",
        "address": "3B, New Heritage, Sir Virgile Naz, QUATRE BORNES",
        "location": {
            "lat": -20.25909,
            "long": 57.47542
        }
    },
    {
        "id": 10009,
        "name": "Karen, Wilson",
        "address": "KULPOO LANE, ROSE BELLE, ROSE BELLE",
        "location": {
            "lat": -20.40282,
            "long": 57.60376
        }
    },
    {
        "id": 10010,
        "name": "Robert, Anderson",
        "address": "BELVEDERE ROAD, CONGOMAH, D'EPINAY",
        "location": {
            "lat": -20.13544,
            "long": 57.60076
        }
    },
    {
        "id": 10011,
        "name": "Emma, Thomas",
        "address": "VICTORIA ROAD, TROU D'EAU DOUCE-FLACQ, TROU D'EAU DOUCE",
        "location": {
            "lat": -20.23542,
            "long": 57.78681
        }
    },
    {
        "id": 10012,
        "name": "James, Martinez",
        "address": "17 BEAUX MANGUIERS,, RUE DU VIEUX MOULIN, PEREYBERE, GRAND BAY",
        "location": {
            "lat": 46.2057,
            "long": 6.25179
        }
    },
    {
        "id": 10013,
        "name": "Maria, Taylor",
        "address": "ROYAL ROAD, BALANCE, SURINAM",
        "location": {
            "lat": 51.48819,
            "long": -2.49064
        }
    },
    {
        "id": 10014,
        "name": "Charles, Adams",
        "address": "3 MARGUERITES, MORC MONTREAL, COROMANDEL",
        "location": {
            "lat": 45.47294,
            "long": -73.58147
        }
    },
    {
        "id": 10015,
        "name": "Susan, Nelson",
        "address": "34 PETIT CAMP, PHOENIX, PETIT CAMP",
        "location": {
            "lat": 48.7688,
            "long": -3.42632
        }
    },
    {
        "id": 10016,
        "name": "Christopher, Hall",
        "address": "CHANTENEY, MOKA, PETIT VERGER",
        "location": {
            "lat": -20.21855,
            "long": 57.52606
        }
    },
    {
        "id": 10017,
        "name": "Lisa, Scott",
        "address": "GUNPATH LANE, MAHEBOURG, MAHEBOURG",
        "location": {
            "lat": -20.41193,
            "long": 57.70338
        }
    },
    {
        "id": 10018,
        "name": "Daniel, King",
        "address": "68, CAPITAINE PONTRE STREET, SAINT CROIX, PORT LOUIS",
        "location": {
            "lat": -20.14817,
            "long": 57.52812
        }
    },
    {
        "id": 10019,
        "name": "Nancy, Wright",
        "address": "MORCELLEMENT ORCHIDEE, ROSE BELLE, ROSE BELLE",
        "location": {
            "lat": -20.40282,
            "long": 57.60376
        }
    },
    {
        "id": 10020,
        "name": "Paul, Hill",
        "address": "MONTEE S, PETITE RIVIERE, PORT LOUIS",
        "location": {
            "lat": 46.6648,
            "long": -72.49815
        }
    },
    {
        "id": 10021,
        "name": "Linda, Green",
        "address": "THOMPSON ROAD, VACOAS, VACOAS",
        "location": {
            "lat": -20.30528,
            "long": 57.48876
        }
    },
    {
        "id": 10022,
        "name": "Mark, Baker",
        "address": "41 ENGRAIS ROAD, VACOAS, VACOAS",
        "location": {
            "lat": -20.31295,
            "long": 57.4902
        }
    },
    {
        "id": 10023,
        "name": "Jessica, Carter",
        "address": "BABOOLALL LANE, MOKA, MOKA",
        "location": {
            "lat": -20.22467,
            "long": 57.50721
        }
    },
    {
        "id": 10024,
        "name": "Joseph, Mitchell",
        "address": "CLOSEL ROAD, PHOENIX, PHOENIX",
        "location": {
            "lat": -20.28596,
            "long": 57.49491
        }
    },
    {
        "id": 10025,
        "name": "Patricia, Allen",
        "address": "84 SSR AVENUE, QUATRE BORNES, QUATRE BORNES",
        "location": {
            "lat": 45.09373,
            "long": 0.46802
        }
    },
    {
        "id": 10026,
        "name": "Richard, Phillips",
        "address": "NO. 9 MORC ADAM, EAU COULEE, EAU COULEE",
        "location": {
            "lat": 16.31541,
            "long": -61.43923
        }
    },
    {
        "id": 10027,
        "name": "Barbara, Morris",
        "address": "91, AVENUE DRAPERS, BELLE ROSE, BELLE ROSE",
        "location": {
            "lat": -20.25965,
            "long": 57.47943
        }
    },
    {
        "id": 10028,
        "name": "Steven, Rogers",
        "address": "L'AGREMENT, SAINT PIERRE, SAINT PIERRE",
        "location": {
            "lat": 46.03082,
            "long": -0.4328
        }
    },
    {
        "id": 10029,
        "name": "Mary, Murphy",
        "address": "ROYAL ROAD, CHEMIN GRENIER, CHEMIN GRENIER",
        "location": {
            "lat": 47.06744,
            "long": -67.7565
        }
    },
    {
        "id": 10030,
        "name": "Thomas, Reed",
        "address": "BOUNDARY ROAD, MORC RIPAILLE, CALEBASSES - PAMPLEMOUSSES",
        "location": {
            "lat": -20.11018,
            "long": 57.55164
        }
    },
    {
        "id": 10031,
        "name": "Karen, Cook",
        "address": "ROYAL ROAD, TYACK, RIVIERE DES ANGUILLES",
        "location": {
            "lat": -20.4896,
            "long": 57.55728
        }
    },
    {
        "id": 10032,
        "name": "Andrew, Lewis",
        "address": "42, AIL DORE STREET, PORT LOUIS, PORT LOUIS",
        "location": {
            "lat": -20.14354,
            "long": 57.52085
        }
    },
    {
        "id": 10033,
        "name": "Carol, Long",
        "address": "SIR NAPIER BROOM STREET, BEAU BASSIN, BEAU BASSIN",
        "location": {
            "lat": -20.22734,
            "long": 57.466
        }
    },
    {
        "id": 10034,
        "name": "Anthony, Perez",
        "address": "RESERVOIR ROAD, GOODLANDS, GOODLANDS",
        "location": {
            "lat": -20.03796,
            "long": 57.64217
        }
    },
    {
        "id": 10035,
        "name": "Margaret, Jenkins",
        "address": "MORCELLEMENT RAFFRAY, LE HOCHET, TERRE ROUGE",
        "location": {
            "lat": -20.13348,
            "long": 57.51835
        }
    },
    {
        "id": 10036,
        "name": "Brian, Richardson",
        "address": "REUNION ROAD, LA VANILLE - VACOAS, VACOAS",
        "location": {
            "lat": -20.31429,
            "long": 57.49343
        }
    },
    {
        "id": 10037,
        "name": "Michelle, Price",
        "address": "NEW MOSQUE ROAD, CHEMIN GRENIER, CHEMIN GRENIER",
        "location": {
            "lat": -20.49597,
            "long": 57.47875
        }
    },
    {
        "id": 10038,
        "name": "Edward, Russell",
        "address": "VINGTA NO.2, VACOAS, VACOAS",
        "location": {
            "lat": -20.29559,
            "long": 57.48063
        }
    },
    {
        "id": 10039,
        "name": "Jennifer, Foster",
        "address": "SHIVALA LANE, MORC RAMKARRAN, ROSE BELLE, ROSE BELLE",
        "location": {
            "lat": -20.39983,
            "long": 57.60203
        }
    },
    {
        "id": 10040,
        "name": "Timothy, Howard",
        "address": "SEWRAZ ROAD, 9EME MILLE TRIOLET, TRIOLET",
        "location": {
            "lat": -20.04875,
            "long": 57.55104
        }
    },
    {
        "id": 10041,
        "name": "Sandra, Stewart",
        "address": "46A DUPONT STREET, BEAU BASSIN, BEAU BASSIN",
        "location": {
            "lat": -20.22148,
            "long": 57.47204
        }
    },
    {
        "id": 10042,
        "name": "Ronald, Bell",
        "address": "HOLLYROOD NO 1, VACOAS, VACOAS",
        "location": {
            "lat": -20.29299,
            "long": 57.48041
        }
    },
    {
        "id": 10043,
        "name": "Angela, Torres",
        "address": "SCHOOL LANE, GLEN PARK - VACOAS, VACOAS",
        "location": {
            "lat": -20.32834,
            "long": 57.48502
        }
    },
    {
        "id": 10044,
        "name": "Matthew, Bailey",
        "address": "AVENUE SOOBIAH, REDUIT, REDUIT",
        "location": {
            "lat": -20.23081,
            "long": 57.49849
        }
    },
    {
        "id": 10045,
        "name": "Julie, Wood",
        "address": "5 ARPENTS, PHOENIX, PHOENIX",
        "location": {
            "lat": 30.49186,
            "long": -90.466
        }
    },
    {
        "id": 10046,
        "name": "Donald, Brooks",
        "address": "MORC RAFFRAY, ST PIERRE, HELVETIA",
        "location": {
            "lat": -20.22644,
            "long": 57.54316
        }
    },
    {
        "id": 10047,
        "name": "Elizabeth, Bennett",
        "address": "19, PANORAMA LANE, MORCELLEMENT HERMITAGE, COROMANDEL",
        "location": {
            "lat": 34.83022,
            "long": -111.76968
        }
    },
    {
        "id": 10048,
        "name": "Kevin, Cole",
        "address": "KALIMAYE ROAD, GOKOOLA, GOKOOLA",
        "location": {
            "lat": -20.10661,
            "long": 57.65525
        }
    },
    {
        "id": 10049,
        "name": "Brenda, Jenkins",
        "address": "DERBY LANE, PAMPLEMOUSSES, PAMPLEMOUSSES",
        "location": {
            "lat": -20.10338,
            "long": 57.57842
        }
    },
    {
        "id": 10050,
        "name": "Gary, Hughes",
        "address": "CATHAN LANE, CAMP GOOLBAR, CHEMIN GRENIER",
        "location": {
            "lat": -20.48981,
            "long": 57.46978
        }
    },
    {
        "id": 10051,
        "name": "Rebecca, James",
        "address": "80 BOULEVARD PITOT, PORT LOUIS, PORT LOUIS",
        "location": {
            "lat": -20.16691,
            "long": 57.51949
        }
    },
    {
        "id": 10052,
        "name": "Larry, Sims",
        "address": "TAGORE ROAD, FOND DU SAC, FOND DU SAC",
        "location": {
            "lat": -20.04506,
            "long": 57.58664
        }
    },
    {
        "id": 10053,
        "name": "Cynthia, Griffin",
        "address": "HOLYROOD NO. 1, VACOAS, VACOAS",
        "location": {
            "lat": -20.31442,
            "long": 57.47738
        }
    },
    {
        "id": 10054,
        "name": "Kenneth, Crawford",
        "address": "HERMITAGE, PHOENIX, HERMITAGE",
        "location": {
            "lat": 36.21235,
            "long": -86.59374
        }
    },
    {
        "id": 10055,
        "name": "Shirley, Ward",
        "address": "ROYAL ROAD, CAMP DE MASQUE - MEDINE, CAMP DE MASQUE",
        "location": {
            "lat": -20.24427,
            "long": 57.64594
        }
    },
    {
        "id": 10056,
        "name": "Dennis, Gibson",
        "address": "378 PALMA ROAD, QUATRE BORNES, QUATRE BORNES",
        "location": {
            "lat": -20.27945,
            "long": 57.45747
        }
    },
    {
        "id": 10057,
        "name": "Nicole, Alexander",
        "address": "ROYAL ROAD 8TH MILE, TRIOLET, TRIOLET",
        "location": {
            "lat": -20.04158,
            "long": 57.55871
        }
    },
    {
        "id": 10058,
        "name": "Jeffrey, Mills",
        "address": "PRINTANIER STREET, CENTRAL FLACQ, CENTRAL FLACQ",
        "location": {
            "lat": -20.11393,
            "long": 57.56179
        }
    },
    {
        "id": 10059,
        "name": "Stephanie, Boyd",
        "address": "SSR ROAD, MISSION CROSS ROAD, BON ACCUEIL",
        "location": {
            "lat": -20.17733,
            "long": 57.6715
        }
    },
    {
        "id": 10060,
        "name": "George, Fox",
        "address": "ROYAL ROAD, MORCELLEMENT ST ANDRE, MORCELLEMENT ST ANDRE",
        "location": {
            "lat": -20.0787,
            "long": 57.56335
        }
    },
    {
        "id": 10061,
        "name": "Janice, Henderson",
        "address": "Des Vergues Lane, Glen Park, Vacoas",
        "location": {
            "lat": -20.32834,
            "long": 57.48502
        }
    },
    {
        "id": 10062,
        "name": "Eric, Murphy",
        "address": "HIGHLANDS, , ",
        "location": {
            "lat": 35.05312,
            "long": -83.19684
        }
    },
    {
        "id": 10063,
        "name": "Melissa, Perry",
        "address": "ROSHNI ROAD, FOND DU SAC, FOND DU SAC",
        "location": {
            "lat": -20.04928,
            "long": 57.58525
        }
    },
    {
        "id": 10064,
        "name": "Stephen, Grant",
        "address": "HOLLYWOOD NO 1, VACOAS, VACOAS",
        "location": {
            "lat": -20.29299,
            "long": 57.48041
        }
    },
    {
        "id": 10065,
        "name": "Dorothy, Hayes",
        "address": "37 DR REID STREET, BEAU BASSIN, BEAU BASSIN",
        "location": {
            "lat": -20.21902,
            "long": 57.4651
        }
    },
    {
        "id": 10066,
        "name": "Patrick, Bryant",
        "address": "16 Corner Governor and Velore , PLAINE VERTE, PLAINE VERTE",
        "location": {
            "lat": 43.59162,
            "long": 3.10706
        }
    },
    {
        "id": 10067,
        "name": "Kimberly, Hart",
        "address": "VALTON ROAD, CHUMMUN LANE, LONG MOUNTAIN",
        "location": {
            "lat": -20.15864,
            "long": 57.56842
        }
    },
    {
        "id": 10068,
        "name": "Gregory, Lane",
        "address": "74, CROWN LANE, BEAU VALLON - MAHEBOURG, BEAU VALLON",
        "location": {
            "lat": -20.42129,
            "long": 57.71316
        }
    },
    {
        "id": 10069,
        "name": "Amy, Weaver",
        "address": "MAHATMA GANDHI ROAD, CREVE COEUR, CREVE COEUR",
        "location": {
            "lat": -20.18085,
            "long": 57.56387
        }
    },
    {
        "id": 10070,
        "name": "Raymond, Larson",
        "address": "CAMP BOMBAYE, FOREST SIDE, CAMP BOMBAYE",
        "location": {
            "lat": -20.29286,
            "long": 57.69781
        }
    },
    {
        "id": 10071,
        "name": "Carol, Webb",
        "address": "150, MORCELLEMENT POUSSON, LA MARIE - VACOAS, LA MARIE",
        "location": {
            "lat": -20.34171,
            "long": 57.49271
        }
    },
    {
        "id": 10072,
        "name": "Benjamin, Harper",
        "address": "CHOISY ROAD, POSTE DE FLACQ, POSTE DE FLACQ",
        "location": {
            "lat": -20.16559,
            "long": 57.73668
        }
    },
    {
        "id": 10073,
        "name": "Samantha, Washington",
        "address": "Lorrier Ave, Point Aux Canonnier, Mauritius",
        "location": {
            "lat": -20.1732,
            "long": 57.44358
        }
    },
    {
        "id": 10074,
        "name": "Walter, Shaw",
        "address": "50, AVENUE SSR, SODNAC, SODNAC",
        "location": {
            "lat": -20.26795,
            "long": 57.48627
        }
    },
    {
        "id": 10075,
        "name": "Marie, Ryan",
        "address": "65 RUE FANGOORAIN, MORC MAISON BLANCHE, PAMPLEMOUSSES",
        "location": {
            "lat": 36.83749,
            "long": 10.08807
        }
    },
    {
        "id": 10076,
        "name": "Bruce, Hunter",
        "address": "DATIER LANE, HIGHLANDS - PHOENIX, HIGHLANDS",
        "location": {
            "lat": 27.2935,
            "long": -81.36257
        }
    },
    {
        "id": 10077,
        "name": "Julie, Morgan",
        "address": "Morcellement Highlands Rose, Highlands - Belle Terre, ",
        "location": {
            "lat": -20.27472,
            "long": 57.51628
        }
    },
    {
        "id": 10078,
        "name": "Ralph, Simpson",
        "address": "59, RIVIERE SECHE STREET, FLOREAL, FLOREAL",
        "location": {
            "lat": 45.29541,
            "long": -66.03175
        }
    },
    {
        "id": 10079,
        "name": "Cheryl, Duncan",
        "address": "38 MALLAC STREET, ROSE HILL, ROSE HILL",
        "location": {
            "lat": -20.24879,
            "long": 57.47032
        }
    },
    {
        "id": 10080,
        "name": "Henry, Harvey",
        "address": "ROYAL ROAD, NOUVELLE FRANCE, NOUVELLE FRANCE",
        "location": {
            "lat": 45.74584,
            "long": -0.81173
        }
    },
    {
        "id": 10081,
        "name": "Rachel, Bradley",
        "address": "NEHRU LANE, FOND DU SAC, FOND DU SAC",
        "location": {
            "lat": -20.04616,
            "long": 57.58626
        }
    },
    {
        "id": 10082,
        "name": "Roy, Burke",
        "address": "TIWARI LANE, MONT FERTILE, ROSE BELLE",
        "location": {
            "lat": -20.39983,
            "long": 57.60203
        }
    },
    {
        "id": 10083,
        "name": "Amanda, Holland",
        "address": "27 ROUTE BASSIN, LA LOUISE - QUATRE BORNES, QUATRE BORNES",
        "location": {
            "lat": -20.27221,
            "long": 57.47632
        }
    },
    {
        "id": 10084,
        "name": "Eugene, Gordon",
        "address": "1b Avenue Loriots, SODNAC - QUATRE BORNES, SODNAC",
        "location": {
            "lat": -20.26795,
            "long": 57.48627
        }
    },
    {
        "id": 10085,
        "name": "Christine, Nichols",
        "address": "LA CAVERNE NO. 2, VACOAS, VACOAS",
        "location": {
            "lat": -20.30401,
            "long": 57.48103
        }
    },
    {
        "id": 10086,
        "name": "Louis, Sims",
        "address": "ROYAL ROAD, CAMP ITHIER, FLACQ",
        "location": {
            "lat": -20.21852,
            "long": 57.75194
        }
    },
    {
        "id": 10087,
        "name": "Sara, Wells",
        "address": "LOT 77 LE LOTISSEMENT, ARSENAL, ARSENAL",
        "location": {
            "lat": 46.08645,
            "long": 4.42847
        }
    },
    {
        "id": 10088,
        "name": "Alice, Ramos",
        "address": "ROYAL ROAD, BRISEE VERDIERE, BRISEE VERDIERE",
        "location": {
            "lat": -20.19457,
            "long": 57.69979
        }
    },
    {
        "id": 10089,
        "name": "Jerry, Lawson",
        "address": "BEELUR ROAD, NOUVELLE DECOUVERTE, SAINT PIERRE",
        "location": {
            "lat": 45.95259,
            "long": -1.33264
        }
    },
    {
        "id": 10090,
        "name": "Victoria, Mason",
        "address": "ROYAL ROAD, EAU COULEE - CUREPIPE, EAU COULEE",
        "location": {
            "lat": 44.86798,
            "long": -92.2703
        }
    },
    {
        "id": 10091,
        "name": "Helen, Freeman",
        "address": "HIGHLANDS, CAMPEMENT ROAD, PHOENIX",
        "location": {
            "lat": 41.3645,
            "long": -74.14295
        }
    },
    {
        "id": 10092,
        "name": "Sean, Ray",
        "address": "COASTAL ROAD, POSTE LA FAYETTE, FLACQ",
        "location": {
            "lat": -20.1646,
            "long": 57.74024
        }
    },
    {
        "id": 10093,
        "name": "Gloria, Hoffman",
        "address": "AVENUE BERTHAUD, RAJCOOMAR LANE IMPASSE FIGUIER, QUATRE BORNES",
        "location": {
            "lat": -20.27562,
            "long": 57.45759
        }
    },
    {
        "id": 10094,
        "name": "Philip, Jordan",
        "address": "HIGHLANDS, CAMPEMENT ROAD, PHOENIX",
        "location": {
            "lat": 41.3645,
            "long": -74.14295
        }
    },
    {
        "id": 10095,
        "name": "Anna, Arnold",
        "address": "ROYAL ROAD, TROU D'EAU DOUCE, TROU D'EAU DOUCE",
        "location": {
            "lat": -20.24201,
            "long": 57.78594
        }
    },
    {
        "id": 10096,
        "name": "Peter, Rose",
        "address": "GROS BILLOT, NEW GROVE, NEW GROVE",
        "location": {
            "lat": -20.41222,
            "long": 57.61866
        }
    },
    {
        "id": 10097,
        "name": "Diana, Watkins",
        "address": "BASDEO BISSOONDOYAL ROAD, LALLMATIE, LALLMATIE",
        "location": {
            "lat": -20.18298,
            "long": 57.66588
        }
    },
    {
        "id": 10098,
        "name": "Adam, Ford",
        "address": "RUGHOOPUTH LANE, PALMA - QUATRE BORNES, PALMA",
        "location": {
            "lat": -20.27907,
            "long": 57.46012
        }
    },
    {
        "id": 10099,
        "name": "Debra, Banks",
        "address": "MOSQUE ROAD, GRAND PORT, ROSE BELLE",
        "location": {
            "lat": -20.40607,
            "long": 57.60367
        }
    },
    {
        "id": 10100,
        "name": "Wayne, Owens",
        "address": "3RD JUDIVADOO ROAD, SOLITUDE, TRIOLET",
        "location": {
            "lat": -20.07613,
            "long": 57.54461
        }
    },
    {
        "id": 10101,
        "name": "Teresa, Miles",
        "address": "VINEY ROAD, CALODYNE, CALODYNE",
        "location": {}
    },
    {
        "id": 10102,
        "name": "Harry, Warren",
        "address": "78, AVENUE MULTIPLIANT, MONREAL 3, COROMANDEL, BEAU BASSIN",
        "location": {
            "lat": 48.04403,
            "long": -65.49174
        }
    },
    {
        "id": 10103,
        "name": "Heather, Armstrong",
        "address": "SAVANNE ROAD, NOUVELLE FRANCE, NOUVELLE FRANCE",
        "location": {
            "lat": 47.57111,
            "long": -0.36168
        }
    },
    {
        "id": 10104,
        "name": "Keith, Mills",
        "address": "HOLLYROOD NO 1, VACOAS, VACOAS",
        "location": {
            "lat": -20.29299,
            "long": 57.48041
        }
    },
    {
        "id": 10105,
        "name": "Jacqueline, Burke",
        "address": "ROYAL ROAD, CONSTANCE, SAINT PIERRE",
        "location": {
            "lat": 27.48528,
            "long": -80.301
        }
    },
    {
        "id": 10106,
        "name": "Martha, Elliott",
        "address": "242 HUGNIN ROAD, ROSE HILL, ROSE HILL",
        "location": {
            "lat": -20.23846,
            "long": 57.4639
        }
    },
    {
        "id": 10107,
        "name": "Samuel, Ferguson",
        "address": "35, MORC. PROVIDENCIA 2, PROVIDENCE, QUARTIER MILITAIRE",
        "location": {}
    },
    {
        "id": 10108,
        "name": "Anne, Diaz",
        "address": "ROYAL ROAD, L'ESPERANCE, QUARTIER MILITAIRE",
        "location": {
            "lat": -20.27361,
            "long": 57.55448
        }
    },
    {
        "id": 10109,
        "name": "Jesse, Rhodes",
        "address": "ABBATOIR STREET, SURINAM, SURINAM",
        "location": {
            "lat": 27.02524,
            "long": -82.01269
        }
    },
    {
        "id": 10110,
        "name": "Carl, Black",
        "address": "BALANCE ROAD, CAROLINE-BEL AIR RIVIERE SECHE, CAROLINE",
        "location": {
            "lat": -20.25029,
            "long": 57.75706
        }
    },
    {
        "id": 10111,
        "name": "Janice, Stokes",
        "address": "ALLEE DES NICOLAIS, BEAU VALLON, MAHEBOURG",
        "location": {
            "lat": -20.41888,
            "long": 57.70381
        }
    },
    {
        "id": 10112,
        "name": "Billy, Hale",
        "address": "32 RAYMOND DE KERVERN, RICHE TERRE, RICHE TERRE",
        "location": {
            "lat": 45.33511,
            "long": 1.94109
        }
    },
    {
        "id": 10113,
        "name": "Jean, Douglas",
        "address": "ROYAL ROAD, QUARTIER MILITAIRE, QUARTIER MILITAIRE",
        "location": {
            "lat": -20.27361,
            "long": 57.55448
        }
    },
    {
        "id": 10114,
        "name": "Earl, Gonzales",
        "address": "RISHI DAYANAND ROAD, CAMP CAROL, LE BOUCHON",
        "location": {
            "lat": -20.44337,
            "long": 57.67729
        }
    },
    {
        "id": 10115,
        "name": "Laurie, Gross",
        "address": "MORCELLEMENT MTMD, HIGHLANDS, PHOENIX",
        "location": {
            "lat": 27.2935,
            "long": -81.36257
        }
    },
    {
        "id": 10116,
        "name": "Lawrence, Lyons",
        "address": "138 HUGNIN ROAD, Rose-Hill, ",
        "location": {
            "lat": -20.23846,
            "long": 57.4639
        }
    },
    {
        "id": 10117,
        "name": "Theresa, Garner",
        "address": "COMLONE ROAD, NOUVELLE FRANCE, NOUVELLE FRANCE",
        "location": {
            "lat": 47.57111,
            "long": -0.36168
        }
    },
    {
        "id": 10118,
        "name": "Vincent, Carr",
        "address": "ROYAL ROAD, CHEMIN GRENIER, CHEMIN GRENIER",
        "location": {
            "lat": 47.06744,
            "long": -67.7565
        }
    },
    {
        "id": 10119,
        "name": "Norma, Paul",
        "address": "ROYAL ROAD, CAMP ITHIER, FLACQ",
        "location": {
            "lat": -20.21852,
            "long": 57.75194
        }
    },
    {
        "id": 10120,
        "name": "Johnny, Stone",
        "address": "LA BARRAQUE ROAD, PLAINE MAGNIEN, PLAINE MAGNIEN",
        "location": {
            "lat": -20.43763,
            "long": 57.65699
        }
    },
    {
        "id": 10121,
        "name": "Christine, Reyes",
        "address": "SSR ROAD ILOT, CAMP DIABLE, CAMP DIABLE",
        "location": {
            "lat": -20.46902,
            "long": 57.58153
        }
    },
    {
        "id": 10122,
        "name": "Christina, Welch",
        "address": "KASMIR RD, PLAINE MAGNIEN, PLAINE MAGNIEN",
        "location": {
            "lat": -20.4244,
            "long": 57.69832
        }
    },
    {
        "id": 10123,
        "name": "Frank, Erickson",
        "address": "28 LECLEZIO STREET, CUREPIPE, CUREPIPE",
        "location": {
            "lat": -20.31441,
            "long": 57.53251
        }
    },
    {
        "id": 10124,
        "name": "Shirley, Mendoza",
        "address": "MORC BLUE PRINT, ROYAL ROAD, CHEMIN GRENIER",
        "location": {
            "lat": 45.45807,
            "long": -65.984
        }
    },
    {
        "id": 10125,
        "name": "Fred, Hanson",
        "address": "JOHN KENNEDY STREET, 3 BOUTIQUES, TRIOLET",
        "location": {
            "lat": 28.03042,
            "long": -82.74758
        }
    },
    {
        "id": 10126,
        "name": "Ann, Cook",
        "address": "KALIMAYE ROAD, LA ROSA, LA ROSA",
        "location": {
            "lat": -18.59899,
            "long": 146.09151
        }
    },
    {
        "id": 10127,
        "name": "Kathryn, Hardy",
        "address": "4, DR BOUR STREET, ST PATRICK - ROSE HILL, ROSE HILL",
        "location": {
            "lat": -20.25187,
            "long": 57.47213
        }
    },
    {
        "id": 10128,
        "name": "Roger, Johnston",
        "address": "NANKA ROAD, BRAMSTHAN, BRAMSTHAN",
        "location": {
            "lat": -20.21222,
            "long": 57.73448
        }
    },
    {
        "id": 10129,
        "name": "Elaine, Rivera",
        "address": "JANSEE ROAD, POUDRE D'OR, HAMLET",
        "location": {
            "lat": -20.07854,
            "long": 57.65681
        }
    },
    {
        "id": 10130,
        "name": "Louise, Dean",
        "address": "AVENUE DES LETCHIERS, MORC BELLE VUE, ALBION",
        "location": {
            "lat": -20.19822,
            "long": 57.41151
        }
    },
    {
        "id": 10131,
        "name": "Clifford, Austin",
        "address": "RAMJAN LANE, COUVENT DE LORETTE, CUREPIPE",
        "location": {
            "lat": -20.29875,
            "long": 57.48906
        }
    },
    {
        "id": 10132,
        "name": "Beverly, Long",
        "address": "IMPASSE BELVEDERE, 5EME MILLE, BEAU BASSIN",
        "location": {
            "lat": -20.21236,
            "long": 57.46878
        }
    },
    {
        "id": 10133,
        "name": "Russell, Fowler",
        "address": "LE SOLITAIRE STREET, FOREST SIDE, 16 EME MILE",
        "location": {
            "lat": 48.94466,
            "long": -57.97028
        }
    },
    {
        "id": 10134,
        "name": "Joe, Webb",
        "address": "75, JOHN KENNEDY AVENUE, VACOAS, VACOAS",
        "location": {
            "lat": -20.30572,
            "long": 57.492
        }
    },
    {
        "id": 10135,
        "name": "Andrea, Wilkins",
        "address": "CAMP FOUQUEREAUX RAOD, CASTEL - PHOENIX, CASTEL",
        "location": {
            "lat": 43.67449,
            "long": -79.36854
        }
    },
    {
        "id": 10136,
        "name": "Jimmy, Saunders",
        "address": "AVENUE DES PETRELS, MEDINE, CAMP DE MASQUE",
        "location": {
            "lat": -20.24113,
            "long": 57.65081
        }
    },
    {
        "id": 10137,
        "name": "Eva, Francis",
        "address": "18JP LA BONTE, VACOAS, VACOAS",
        "location": {
            "lat": -21.13871,
            "long": 55.62654
        }
    },
    {
        "id": 10138,
        "name": "Phillip, Sherman",
        "address": "SHIV PRAKASH MANDIR RD, 7TH MILE, TRIOLET",
        "location": {
            "lat": -20.07436,
            "long": 57.54756
        }
    },
    {
        "id": 10139,
        "name": "Rose, Lambert",
        "address": "CLOSEL ROAD, PHOENIX, PHOENIX",
        "location": {
            "lat": -20.28596,
            "long": 57.49491
        }
    },
    {
        "id": 10140,
        "name": "Marvin, Walton",
        "address": "BADAL LANE, CIRCONSTANCE, SAINT PIERRE",
        "location": {
            "lat": -20.22395,
            "long": 57.54201
        }
    },
    {
        "id": 10141,
        "name": "Eileen, Briggs",
        "address": "POONYE LANE, CANOT, CANOT",
        "location": {
            "lat": -20.2205,
            "long": 57.42816
        }
    },
    {
        "id": 10142,
        "name": "Melinda, Maxwell",
        "address": "ALLEE BRILLANT, CASTEL, CASTEL",
        "location": {
            "lat": 46.89993,
            "long": 6.77925
        }
    },
    {
        "id": 10143,
        "name": "Lee, Pittman",
        "address": "MORCELLEMENT ROY, BEL AIR RIVIERE SECHE, BEL AIR RIVIERE SECHE",
        "location": {
            "lat": -20.26404,
            "long": 57.74768
        }
    },
    {
        "id": 10144,
        "name": "Frances, Newton",
        "address": "JUHOOR STREET, GRAND BEL AIR, MAHEBOURG",
        "location": {
            "lat": -20.40798,
            "long": 57.67675
        }
    },
    {
        "id": 10145,
        "name": "Allison, Hale",
        "address": "SAMPUTH LANE, GROS BILLOT, NEW GROVE",
        "location": {
            "lat": 40.85306,
            "long": -73.11499
        }
    },
    {
        "id": 10146,
        "name": "Ashley, Glover",
        "address": "BERTHAUD AVENUE,, QUATRE BORNES, QUATRE BORNES",
        "location": {
            "lat": -20.26753,
            "long": 57.46721
        }
    },
    {
        "id": 10147,
        "name": "Stanley, Wong",
        "address": "PETIT VILLAGE, GOODLANDS, ",
        "location": {
            "lat": -20.03329,
            "long": 57.67651
        }
    },
    {
        "id": 10148,
        "name": "Natalie, Tate",
        "address": "SOLFERINO 1, BONNE TERRE, VACOAS",
        "location": {
            "lat": 16.3565,
            "long": -61.45103
        }
    },
    {
        "id": 10149,
        "name": "Philip, Yates",
        "address": "ROYAL ROAD, BELLE VUE MAUREL, BELLE VUE MAUREL",
        "location": {
            "lat": -20.12242,
            "long": 57.6699
        }
    },
    {
        "id": 10150,
        "name": "Martin, Vasquez",
        "address": "NEW ROAD, ROCHES NOIRES, ROCHES NOIRES",
        "location": {
            "lat": -20.11343,
            "long": 57.71969
        }
    },
    {
        "id": 10151,
        "name": "Laura, Briggs",
        "address": "IMPASSE GULLAM HOSSEN, LA PEYROUSE, EAU COULEE, CUREPIPE ROAD",
        "location": {}
    },
    {
        "id": 10152,
        "name": "Emily, Dawson",
        "address": "VILLENEUVE STREET, MAHEBOURG, MAHEBOURG",
        "location": {
            "lat": -20.40956,
            "long": 57.70822
        }
    },
    {
        "id": 10153,
        "name": "Victor, Grant",
        "address": "122, ROYAL ROAD,, GROS CAILLOUX - PETITE RIVIERE, GROS CAILLOUX",
        "location": {
            "lat": -20.21364,
            "long": 57.4352
        }
    },
    {
        "id": 10154,
        "name": "Wayne, Walsh",
        "address": "PAVADAY, LA MARIE ROAD, VACOAS",
        "location": {
            "lat": -20.32233,
            "long": 57.48479
        }
    },
    {
        "id": 10155,
        "name": "Irene, Wade",
        "address": "NO 2, BONNEFIN, PAILLES, PAILLES",
        "location": {
            "lat": 47.66577,
            "long": -0.77574
        }
    },
    {
        "id": 10156,
        "name": "Jose, Guerrero",
        "address": "QUEEN ELIZABETH ROAD, 7TH MILE, TRIOLET",
        "location": {
            "lat": 51.5895,
            "long": -0.0354
        }
    },
    {
        "id": 10157,
        "name": "Alan, Rose",
        "address": "18A, TANK-WEN STREET, PORT LOUIS, PORT LOUIS",
        "location": {
            "lat": -20.16696,
            "long": 57.49473
        }
    },
    {
        "id": 10158,
        "name": "Paula, Boone",
        "address": "VICTORIA ROAD, TROU D'EAU DOUCE, TROU D'EAU DOUCE",
        "location": {
            "lat": -20.23542,
            "long": 57.78681
        }
    },
    {
        "id": 10159,
        "name": "Alicia, Hopkins",
        "address": "HARDLINE STREET, ROBINSON ROAD CUREPIPE, CUREPIPE",
        "location": {
            "lat": -20.32706,
            "long": 57.50713
        }
    },
    {
        "id": 10160,
        "name": "Raymond, Ellis",
        "address": "B5, ANDREANUM PAILLES, PORT LOUIS, PAILLES",
        "location": {
            "lat": -20.18486,
            "long": 57.47741
        }
    },
    {
        "id": 10161,
        "name": "Danny, Curtis",
        "address": "SHAMTALLY LANE, UNION PARK, UNION PARK",
        "location": {
            "lat": 42.53878,
            "long": -90.71099
        }
    },
    {
        "id": 10162,
        "name": "Bradley, Logan",
        "address": "B54, AVENUE ODETTE ERNEST, QUATRE BORNES, QUATRE BORBES",
        "location": {
            "lat": -20.26667,
            "long": 57.47211
        }
    },
    {
        "id": 10163,
        "name": "Ernest, Ramsey",
        "address": "WILLIAM LORQUAY LANE, CHEMIN GRENIER, CHEMIN GRENIER",
        "location": {
            "lat": -20.4973,
            "long": 57.48221
        }
    },
    {
        "id": 10164,
        "name": "Ruby, Singleton",
        "address": "4, DESIRE SICARD, CAMP CHAPELON, PORT LOUIS",
        "location": {
            "lat": -20.18183,
            "long": 57.47958
        }
    },
    {
        "id": 10165,
        "name": "Vera, Wade",
        "address": "ADVENTIST ROAD, CHEMIN GRENIER, CHEMIN GRENIER",
        "location": {
            "lat": -20.49541,
            "long": 57.47291
        }
    },
    {
        "id": 10166,
        "name": "Allen, Strickland",
        "address": "KALIMAYE ROAD, DAGOTIERE, DAGOTIERE",
        "location": {
            "lat": -20.24693,
            "long": 57.56064
        }
    },
    {
        "id": 10167,
        "name": "Beth, Flowers",
        "address": "AVENUE JAYLALL, LANE PALMA ROAD, QUATRE BORNES",
        "location": {
            "lat": -20.2779,
            "long": 57.46059
        }
    },
    {
        "id": 10168,
        "name": "Glenn, Riley",
        "address": "38 PALMA ROAD, QUATRE BORNES, QUATRE BORNES",
        "location": {
            "lat": -20.27945,
            "long": 57.45747
        }
    },
    {
        "id": 10169,
        "name": "Joyce, Pratt",
        "address": "ROYAL ROAD, BEL AIR RIVIERE SECHE, BEL AIR RIVIERE SECHE",
        "location": {
            "lat": -20.25058,
            "long": 57.75632
        }
    },
    {
        "id": 10170,
        "name": "Tony, Perez",
        "address": "ROYAL ROAD, DAGOTIERE, DAGOTIERE",
        "location": {
            "lat": -20.24301,
            "long": 57.56474
        }
    },
    {
        "id": 10171,
        "name": "Shannon, Sandoval",
        "address": "MORCELLEMENT LE BLANC, THOMPSON ROAD, VACOAS",
        "location": {
            "lat": -20.30164,
            "long": 57.48709
        }
    },
    {
        "id": 10172,
        "name": "Anita, Fisher",
        "address": "ROYAL ROAD, POINTE AUX PIMENTS, POINTE AUX PIMENTS",
        "location": {
            "lat": -20.06347,
            "long": 57.5249
        }
    },
    {
        "id": 10173,
        "name": "Arnold, Curtis",
        "address": "SHIVALA ROAD, TERMINUS, TRIOLET",
        "location": {
            "lat": -20.04356,
            "long": 57.55355
        }
    },
    {
        "id": 10174,
        "name": "Gina, Clarke",
        "address": "ROYAL ROAD, PELLEGRIN, SEBASTOPOL",
        "location": {
            "lat": -20.27931,
            "long": 57.68349
        }
    },
    {
        "id": 10175,
        "name": "Leslie, Hanson",
        "address": "LA ROUTE VINGTA, NO. 3, MODERN SQUARE, VACOAS",
        "location": {}
    },
    {
        "id": 10176,
        "name": "Lorraine, Rodgers",
        "address": "12, AVENUE OLLIER, QUATRE BORNES, QUATRE BORNES",
        "location": {
            "lat": 45.09344,
            "long": 0.46893
        }
    },
    {
        "id": 10177,
        "name": "Kent, Nichols",
        "address": "PLOT NO 43,, MORC. MON DESERT ALMA,, L'AVENIR ST PIERRE",
        "location": {
            "lat": -20.22644,
            "long": 57.54316
        }
    },
    {
        "id": 10178,
        "name": "Marcia, Hale",
        "address": "AVENUE RAOUL LAMARQUE, LA GAULETTE, LA GAULETTE",
        "location": {
            "lat": -20.4233,
            "long": 57.36314
        }
    },
    {
        "id": 10179,
        "name": "Alfred, James",
        "address": "A4 RESIDENCE LES GLAIEULS, PETIT VERGER, POINTE AUX SABLES",
        "location": {
            "lat": 49.3614,
            "long": 0.93748
        }
    },
    {
        "id": 10180,
        "name": "Marilyn, Boone",
        "address": "34, MILITARY ROAD, PORT LOUIS, PORT LOUIS",
        "location": {
            "lat": -20.15863,
            "long": 57.51949
        }
    },
    {
        "id": 10181,
        "name": "Juan, Klein",
        "address": "VINGTA NO 3, VACOAS, VACOAS",
        "location": {
            "lat": -20.29616,
            "long": 57.47946
        }
    },
    {
        "id": 10182,
        "name": "Justin, Malone",
        "address": "9, VEL GOVINDEN STREET, BEAU BASSIN, BEAU BASSIN",
        "location": {
            "lat": -20.22354,
            "long": 57.46758
        }
    },
    {
        "id": 10183,
        "name": "Jonathan, Brown",
        "address": "JACKSON LANE, ROUTE BASSIN, QUATRE BORNES",
        "location": {
            "lat": 48.81761,
            "long": 2.17045
        }
    },
    {
        "id": 10184,
        "name": "Michelle, Goodman",
        "address": "CAMP CAROL, MON DESERT MON TRESOR, LE BOUCHON",
        "location": {
            "lat": -20.45022,
            "long": 57.67768
        }
    },
    {
        "id": 10185,
        "name": "Gene, Nelson",
        "address": "RUE MATERNELLE, CAROLINE-BEL AIR RIVIERE SECHE, CAROLINE",
        "location": {
            "lat": -20.2584,
            "long": 57.75401
        }
    },
    {
        "id": 10186,
        "name": "Sheila, Bryan",
        "address": "RAMSURN LANE, ST PAUL, ST PAUL",
        "location": {
            "lat": 46.26529,
            "long": -119.16046
        }
    },
    {
        "id": 10187,
        "name": "Christian, Spencer",
        "address": "LETORD STREET, GEBERT, ROSE BELLE",
        "location": {
            "lat": -20.40854,
            "long": 57.6067
        }
    },
    {
        "id": 10188,
        "name": "Michelle, Shelton",
        "address": "MOSQUE ROAD, BARAMIA, ROSE BELLE",
        "location": {
            "lat": -20.40607,
            "long": 57.60367
        }
    },
    {
        "id": 10189,
        "name": "Kelly, Goodman",
        "address": "54, DR O BEAUGEARD STREET, PORT LOUIS, PORT LOUIS",
        "location": {
            "lat": -20.1705,
            "long": 57.49966
        }
    },
    {
        "id": 10190,
        "name": "Robin, Smith",
        "address": "NEW RAILWAY ROAD, RIVIERE DU REMPART, RIVIERE DU REMPART",
        "location": {
            "lat": -20.10848,
            "long": 57.69236
        }
    },
    {
        "id": 10191,
        "name": "Bruce, Griffin",
        "address": "BARODA LANE, RIVIERE DU REMPART, RIVIERE DU REMPART",
        "location": {
            "lat": -20.10848,
            "long": 57.69236
        }
    },
    {
        "id": 10192,
        "name": "Willard, Bailey",
        "address": "MARIE JEANNE ROAD, 15 CANTONS - VACOAS, VACOAS",
        "location": {
            "lat": -20.3099,
            "long": 57.48121
        }
    },
    {
        "id": 10193,
        "name": "Carlos, Gill",
        "address": "VALORY ROAD, MOKA, MOKA",
        "location": {
            "lat": -20.22079,
            "long": 57.50182
        }
    },
    {
        "id": 10194,
        "name": "Daryl, Reeves",
        "address": "ISLAMIC CENTRE, MILITARY ROAD, CITE MARTIAL, PORT LOUIS",
        "location": {
            "lat": 34.24956,
            "long": -77.82686
        }
    },
    {
        "id": 10195,
        "name": "Victoria, Miles",
        "address": "205 MORCELLEMENT POUSSON, LA MARIE, LA MARIE - VACOAS",
        "location": {
            "lat": -20.34171,
            "long": 57.49271
        }
    },
    {
        "id": 10196,
        "name": "Irene, Lewis",
        "address": "KEJIOU ROAD, PETIT VILLAGE, GOODLANDS",
        "location": {
            "lat": -20.03329,
            "long": 57.67651
        }
    },
    {
        "id": 10197,
        "name": "Melissa, Olson",
        "address": "BUS STOP LANE, MELROSE, MELROSE",
        "location": {
            "lat": -20.27264,
            "long": 57.64066
        }
    },
    {
        "id": 10198,
        "name": "Paula, Johnson",
        "address": "215 AVE MGR LEEN, QUATRE BORNES, QUATRE BORNES",
        "location": {
            "lat": -20.28058,
            "long": 57.46905
        }
    },
    {
        "id": 10199,
        "name": "Tanya, Rice",
        "address": "BHARATI ROAD, COTTAGE, COTTAGE",
        "location": {
            "lat": -37.68893,
            "long": 140.93915
        }
    },
    {
        "id": 10200,
        "name": "Rhonda, Malone",
        "address": "LETORD ROAD, ROSE BELLE, ROSE BELLE",
        "location": {
            "lat": -20.25513,
            "long": 57.72607
        }
    },
    {
        "id": 10201,
        "name": "Lynda, Gutierrez",
        "address": "MUTTY ROAD, NOUVELLE DECOUVERTE, NOUVELLE DECOUVERTE",
        "location": {
            "lat": -20.18353,
            "long": 57.59211
        }
    },
    {
        "id": 10202,
        "name": "Tamara, Roberts",
        "address": "LOLLJI ROAD, MARIE JEANNIE, ROSE BELLE",
        "location": {
            "lat": -20.40189,
            "long": 57.59327
        }
    },
    {
        "id": 10203,
        "name": "Leo, Murray",
        "address": "BUTTE A L'HERBE, CALODYNE, CALODYNE",
        "location": {}
    },
    {
        "id": 10204,
        "name": "Claude, Burgess",
        "address": "GIQUEL STREET, EAU COULEE - CUREPIPE, EAU COULEE",
        "location": {
            "lat": 44.71022,
            "long": -92.08023
        }
    },
    {
        "id": 10205,
        "name": "Steven, Estrada",
        "address": "MUNDHUP LANE, MONTAGNE BLANCHE, MONTAGNE BLANCHE",
        "location": {
            "lat": -20.28564,
            "long": 57.66128
        }
    },
    {
        "id": 10206,
        "name": "Loretta, Reed",
        "address": "SOOKDEO BISSOONDOYAL STREET, NOUVELLE FRANCE, NOUVELLE FRANCE",
        "location": {
            "lat": 44.00848,
            "long": -0.19241
        }
    },
    {
        "id": 10207,
        "name": "Jerome, Buchanan",
        "address": "TALIPOT LANE, PETITE RIVIERE, PETITE RIVIERE",
        "location": {
            "lat": -20.19639,
            "long": 57.44579
        }
    },
    {
        "id": 10208,
        "name": "Frances, Fields",
        "address": "6 Harlequin Fish Street, Chapman's View, Coromandel",
        "location": {
            "lat": -25.98549,
            "long": 28.17567
        }
    },
    {
        "id": 10209,
        "name": "Hector, Rivera",
        "address": "134 B LONGANIER, MONTREAL II, COROMANDEL",
        "location": {
            "lat": -9.96903,
            "long": -67.84173
        }
    },
    {
        "id": 10210,
        "name": "Charlotte, Ball",
        "address": "YOUNG TOW ROAD, GRAND BOIS, GRAND BOIS",
        "location": {
            "lat": 30.26004,
            "long": -91.8167
        }
    },
    {
        "id": 10211,
        "name": "Melanie, Hayes",
        "address": "RAMMA LANE, ST JULIEN D'HOTMAN, ST JULIEN D'HOTMAN",
        "location": {
            "lat": -20.23042,
            "long": 57.63833
        }
    },
    {
        "id": 10212,
        "name": "Geraldine, Curry",
        "address": "HIBISCUS LANE, CANOT - BAMBOUS, BAMBOUS",
        "location": {
            "lat": -20.22021,
            "long": 57.42894
        }
    },
    {
        "id": 10213,
        "name": "Marion, Luna",
        "address": "TROU AUX BICHES ROAD, TRIOLET, TRIOLET",
        "location": {
            "lat": -20.04323,
            "long": 57.55126
        }
    },
    {
        "id": 10214,
        "name": "Eugene, Pearson",
        "address": "20, PRINCESS ALEXANDRA STREET, DUBREUIL, DUBREUIL",
        "location": {
            "lat": -20.30071,
            "long": 57.60269
        }
    },
    {
        "id": 10215,
        "name": "Joan, Lamb",
        "address": "TAGORE ROAD, LALLMATIE-FLACQ, LALLMATIE",
        "location": {
            "lat": -20.19379,
            "long": 57.67156
        }
    },
    {
        "id": 10216,
        "name": "Frances, Thomas",
        "address": "25,LA CROIX STREET, FOREST SIDE, FOREST SIDE",
        "location": {
            "lat": -27.60464,
            "long": 152.02385
        }
    },
    {
        "id": 10217,
        "name": "Lonnie, Stone",
        "address": "GHORUN LANE, COUVENT DE LORETTE ROAD, CUREPIPE",
        "location": {
            "lat": -20.29875,
            "long": 57.48906
        }
    },
    {
        "id": 10218,
        "name": "Marilyn, Harvey",
        "address": "7, VEL GOVINDEN STREET, BEAU BASSIN, BEAU BASSIN",
        "location": {
            "lat": -20.22354,
            "long": 57.46758
        }
    },
    {
        "id": 10219,
        "name": "Marjorie, Green",
        "address": "3 Rues Des Marguerites, Morc Montreal, COROMANDEL",
        "location": {
            "lat": 45.60681,
            "long": -73.6249
        }
    },
    {
        "id": 10220,
        "name": "Wanda, Hardy",
        "address": "SEECHURN LANE, LES MARIANNES - LONG MOUNTAIN, LES MARIANNES",
        "location": {
            "lat": -20.16248,
            "long": 57.58987
        }
    },
    {
        "id": 10221,
        "name": "Jack, Armstrong",
        "address": "ROYAL ROAD, MIDLANDS, MIDLANDS",
        "location": {
            "lat": 52.56105,
            "long": -1.81706
        }
    },
    {
        "id": 10222,
        "name": "Annette, Sanders",
        "address": "JUMBO ROAD, CHEMIN GRENIER, CHEMIN GRENIER",
        "location": {
            "lat": -20.49186,
            "long": 57.47716
        }
    },
    {
        "id": 10223,
        "name": "Leroy, Ward",
        "address": "ATLAS ROAD, GOODLANDS, GOODLANDS",
        "location": {
            "lat": -30.09116,
            "long": 117.16561
        }
    },
    {
        "id": 10224,
        "name": "Hazel, Horton",
        "address": "INDIRA GANDHI ROAD, PETIT RAFFRAY, PETIT RAFFRAY",
        "location": {
            "lat": -20.0179,
            "long": 57.62651
        }
    },
    {
        "id": 10225,
        "name": "Max, Carr",
        "address": "72, BOULEVARD VICTORIA, PORT LOUIS, PORT LOUIS",
        "location": {
            "lat": -20.16832,
            "long": 57.51465
        }
    },
    {
        "id": 10226,
        "name": "Karl, Glover",
        "address": "AVENUE PETITE MARIE, FLIC EN FLAC, FLIC EN FLAC",
        "location": {
            "lat": -20.27865,
            "long": 57.37215
        }
    },
    {
        "id": 10227,
        "name": "Jessie, Walton",
        "address": "AVENUE JOSEPH VICTOIRE, BEL AIR RIVIERE SECHE, BEL AIR RIVIERE SECHE",
        "location": {
            "lat": -20.26013,
            "long": 57.75047
        }
    },
    {
        "id": 10228,
        "name": "Mathew, Walsh",
        "address": "ROYAL ROAD, 5 ARPENTS - PHOENIX, 5 ARPENTS",
        "location": {
            "lat": 46.22073,
            "long": -64.35597
        }
    },
    {
        "id": 10229,
        "name": "Rhonda, Klein",
        "address": "MORCELLEMENT COUACAUD LANE, CUREPIPE, CUREPIPE",
        "location": {
            "lat": -20.31357,
            "long": 57.50007
        }
    },
    {
        "id": 10230,
        "name": "Gwen, Wise",
        "address": "7B, ABBE MAZUY STREET, BEAU BASSIN, BEAU BASSIN",
        "location": {
            "lat": -20.23396,
            "long": 57.46817
        }
    },
    {
        "id": 10231,
        "name": "Beatrice, Becker",
        "address": "PETIT VERGER, SAINT PIERRE, SAINT PIERRE",
        "location": {
            "lat": -20.21855,
            "long": 57.52606
        }
    },
    {
        "id": 10232,
        "name": "Willie, Ramos",
        "address": "ROYAL ROAD, MEDINE, CAMP DE MASQUE",
        "location": {
            "lat": -20.24254,
            "long": 57.63549
        }
    },
    {
        "id": 10233,
        "name": "Jeanette, Graham",
        "address": "RAMPARSAD LANE, LAVENTURE, LAVENTURE",
        "location": {
            "lat": -20.14769,
            "long": 57.68644
        }
    },
    {
        "id": 10234,
        "name": "Kristin, Elliott",
        "address": "LA CLEMANCE, RIVIERE DU REMPART, RIVIERE DU REMPART",
        "location": {
            "lat": -20.10848,
            "long": 57.69236
        }
    },
    {
        "id": 10235,
        "name": "Jerome, Clark",
        "address": "LOT NO 3 LOTUS LANE, BERNARDIN DE ST PIERRE, VALLEE DES PRETRES",
        "location": {
            "lat": -20.16982,
            "long": 57.5377
        }
    },
    {
        "id": 10236,
        "name": "Courtney, Rowe",
        "address": "ROYAL ROAD, ROYAL ROAD - GRAND SABLES, GRAND SABLES",
        "location": {
            "lat": 37.85844,
            "long": -82.07256
        }
    },
    {
        "id": 10237,
        "name": "Lester, Johnston",
        "address": "22 COSSIGNY STREET, CUREPIPE ROAD, CUREPIPE",
        "location": {
            "lat": -20.3144,
            "long": 57.52338
        }
    },
    {
        "id": 10238,
        "name": "Oliver, Zimmerman",
        "address": "225, OLLIER AVENUE, QUATRE BORNES, QUATRE BORNES",
        "location": {
            "lat": 45.09226,
            "long": 0.47112
        }
    },
    {
        "id": 10239,
        "name": "Edna, Patrick",
        "address": "MONTAGNE CHATTE ROAD, POSTE DE FLACQ, POSTE DE FLACQ",
        "location": {
            "lat": -20.16911,
            "long": 57.73195
        }
    },
    {
        "id": 10240,
        "name": "Lauren, Stephens",
        "address": "MORC DES GERSIGNY, CENTRAL FLACQ, CENTRAL FLACQ",
        "location": {
            "lat": -20.14949,
            "long": 57.51689
        }
    },
    {
        "id": 10241,
        "name": "Fred, Woods",
        "address": "SAWMILL ROAD, CHAMOUNY, CHAMOUNY",
        "location": {
            "lat": -20.48187,
            "long": 57.48011
        }
    },
    {
        "id": 10242,
        "name": "Lynda, Grant",
        "address": "E39 AVE L'ESPERANCE, RESIDENCE KENNEDY, QUATRE BORNES",
        "location": {
            "lat": 47.06552,
            "long": 4.5529
        }
    },
    {
        "id": 10243,
        "name": "Eileen, Neal",
        "address": "MGR LEEN, QUATRE BORNES, QUATRE BORNES",
        "location": {
            "lat": -20.2658,
            "long": 57.47911
        }
    },
    {
        "id": 10244,
        "name": "Oscar, Rodriquez",
        "address": "28, GHOORUN LANE, RUE COUVENT DE LORETTE, CUREPIPE",
        "location": {}
    },
    {
        "id": 10245,
        "name": "Stella, Zimmerman",
        "address": "28, BOULEVARD PITOT STREET, VALLEY PITOT, PORT LOUIS",
        "location": {
            "lat": -20.16691,
            "long": 57.51949
        }
    },
    {
        "id": 10246,
        "name": "Carmen, Anderson",
        "address": "45, WEST LANE, FLOREAL, FLOREAL",
        "location": {
            "lat": 39.21986,
            "long": -77.80361
        }
    },
    {
        "id": 10247,
        "name": "Allison, Johnston",
        "address": "SEECHURN LANE, LES MARIANNES - LONG MOUNTAIN, LES MARIANNES",
        "location": {
            "lat": -20.16248,
            "long": 57.58987
        }
    },
    {
        "id": 10248,
        "name": "Theresa, Mason",
        "address": "COONEE ROAD, REUNION MAUREL, REUNION MAUREL",
        "location": {
            "lat": -21.21148,
            "long": 55.3523
        }
    },
    {
        "id": 10249,
        "name": "Salvador, Lynch",
        "address": "Ramlagun Moosun School Road,, Bois Rouge, Goodlands",
        "location": {
            "lat": -20.03744,
            "long": 57.64139
        }
    },
    {
        "id": 10250,
        "name": "Audrey, Fox",
        "address": "ROYAL ROAD,, OLD GRAND PORT, OLD GRAND PORT",
        "location": {
            "lat": -20.37148,
            "long": 57.71419
        }
    },
    {
        "id": 10251,
        "name": "Phillip, McBride",
        "address": "TAGORE LANE, MARE D`ALBERT, MARE D`ALBERT",
        "location": {
            "lat": -20.42361,
            "long": 57.63195
        }
    },
    {
        "id": 10252,
        "name": "Maureen, Obrien",
        "address": "SEWRAZ ROAD, 9TH MILE, TRIOLET",
        "location": {
            "lat": -20.04875,
            "long": 57.55104
        }
    },
    {
        "id": 10253,
        "name": "Kristen, Curtis",
        "address": "NARAD ROAD, PETIT RAFFRAY, PETIT RAFFRAY",
        "location": {
            "lat": -20.01636,
            "long": 57.62428
        }
    },
    {
        "id": 10254,
        "name": "Billie, Warner",
        "address": "BERNICA LANE, GLEN PARK - VACOAS, GLEN PARK",
        "location": {
            "lat": 44.56193,
            "long": -78.08781
        }
    },
    {
        "id": 10255,
        "name": "Cecil, Houston",
        "address": "ROYAL ROAD, CAROLINE-BEL AIR RIVIERE SECHE, CAROLINE",
        "location": {
            "lat": -20.26242,
            "long": 57.74659
        }
    },
    {
        "id": 10256,
        "name": "Albert, Greene",
        "address": "RIVER SIDE ROAD, PHOENIX, PHOENIX",
        "location": {
            "lat": 37.65558,
            "long": -78.89388
        }
    },
    {
        "id": 10257,
        "name": "Wendy, Harrison",
        "address": "8 BEYTS STREET, BEAU BASSIN, BEAU BASSIN",
        "location": {
            "lat": -20.22253,
            "long": 57.47219
        }
    },
    {
        "id": 10258,
        "name": "Ryan, Carr",
        "address": "JUGGOO LANE, MARE TABAC, MARE TABAC",
        "location": {
            "lat": -20.44278,
            "long": 57.59425
        }
    },
    {
        "id": 10259,
        "name": "Seth, Reed",
        "address": "BEDDING FELD STREET,, PAMPLEMOUSSES, PAMPLEMOUSSES",
        "location": {
            "lat": -20.10547,
            "long": 57.57711
        }
    },
    {
        "id": 10260,
        "name": "Dawn, McKinney",
        "address": "44, CORDERIE STREET, PORT LOUIS, PORT LOUIS",
        "location": {
            "lat": -20.16113,
            "long": 57.50416
        }
    },
    {
        "id": 10261,
        "name": "Dana, Ortiz",
        "address": "GARDEN STREET, POSTE DE FLACQ, FLACQ",
        "location": {
            "lat": -20.16559,
            "long": 57.73668
        }
    },
    {
        "id": 10262,
        "name": "Roxanne, Marsh",
        "address": "BENITIER STREET, RIVIERE DES GALETS, CHEMIN GRENIER",
        "location": {
            "lat": -20.50492,
            "long": 57.45655
        }
    },
    {
        "id": 10263,
        "name": "Mike, Austin",
        "address": "SHRIMATEE INDIRA GANDHI LANE,, PAILLES, PAILLES",
        "location": {
            "lat": 22.57885,
            "long": 88.35987
        }
    },
    {
        "id": 10264,
        "name": "Clifton, Hoffman",
        "address": "PALMA ROAD, GANGAMAH AVENUE, QUATRE BORNES",
        "location": {
            "lat": -20.28463,
            "long": 57.44655
        }
    },
    {
        "id": 10265,
        "name": "Glenn, Moran",
        "address": "11, AVENUE DE LA FAYE, BELLE ROSE, QUATRE BORNES",
        "location": {
            "lat": 44.81131,
            "long": -0.55018
        }
    },
    {
        "id": 10266,
        "name": "Guy, Rogers",
        "address": "INDEENARAIN ROAD, ST FRANCOIS CAP MALHEUREUX, CAP MALHEUREUX",
        "location": {
            "lat": -20.005,
            "long": 57.63854
        }
    },
    {
        "id": 10267,
        "name": "Marianne, Townsend",
        "address": "DES COINS ROAD, LONG MOUNTAIN, LONG MOUNTAIN",
        "location": {
            "lat": 30.55128,
            "long": -98.40355
        }
    },
    {
        "id": 10268,
        "name": "Pat, Hogan",
        "address": "MISSION CROSS ROAD, LALLMATIE, LALLMATIE",
        "location": {
            "lat": -20.18208,
            "long": 57.67012
        }
    },
    {
        "id": 10269,
        "name": "Marie, Logan",
        "address": "KULPOO LANE, ROSE BELLE, GRAND PORT",
        "location": {
            "lat": -20.39983,
            "long": 57.60203
        }
    },
    {
        "id": 10270,
        "name": "Sue, Lyons",
        "address": "125, MORCELLEMENT VRS, BRITANNIA, BRITANNIA",
        "location": {
            "lat": 51.47635,
            "long": 0.18198
        }
    },
    {
        "id": 10271,
        "name": "Kristine, Glover",
        "address": "CRESSONVILLE POULTRY FARM, BEAUX SONGES, BAMBOUS",
        "location": {}
    },
    {
        "id": 10272,
        "name": "Rita, Ruiz",
        "address": "307,MORC GRIS-GRIS, SOUILLAC, SOUILLAC",
        "location": {}
    },
    {
        "id": 10273,
        "name": "Andrea, Adkins",
        "address": "KALIMAYE ROAD, DAGOTIERE, DAGOTIERE",
        "location": {
            "lat": -20.24693,
            "long": 57.56064
        }
    },
    {
        "id": 10274,
        "name": "Terry, Gray",
        "address": "ABBE DE LA CALLE, CUREPIPE ROAD, CUREPIPE",
        "location": {
            "lat": -20.31212,
            "long": 57.52696
        }
    },
    {
        "id": 10275,
        "name": "Nelson, Hardy",
        "address": "GROS CAILLOUX, BOSQUET ROAD, PETITE RIVIERE",
        "location": {
            "lat": -20.20733,
            "long": 57.44157
        }
    },
    {
        "id": 10276,
        "name": "Monica, Frazier",
        "address": "RIVIER SIDE, PHOENIX, PHOENIX",
        "location": {
            "lat": 33.95913,
            "long": -112.13163
        }
    },
    {
        "id": 10277,
        "name": "Edwin, Kelley",
        "address": "ROYAL ROAD, RIVIERE DES ANGUILLES, ",
        "location": {
            "lat": -20.5024,
            "long": 57.57277
        }
    },
    {
        "id": 10278,
        "name": "Herman, Barrett",
        "address": "31, TECOMA STREET, MORCELLEMENT REY, POINTE AUX SABLES",
        "location": {
            "lat": -20.18314,
            "long": 57.43859
        }
    },
    {
        "id": 10279,
        "name": "Leslie, Mann",
        "address": "ROYAL ROAD, ALBION, ALBION",
        "location": {
            "lat": 51.13857,
            "long": 0.27113
        }
    },
    {
        "id": 10280,
        "name": "Derrick, Fox",
        "address": "TINTAMARE, PONT COLVILLE, NOUVELLE FRANCE, NOUVELLE FRANCE",
        "location": {
            "lat": -20.38471,
            "long": 57.56614
        }
    },
    {
        "id": 10281,
        "name": "Carole, Bates",
        "address": "16, AVENUE ROLAND MAUREL, MORCELLEMENT LE ROCK, PAILLES",
        "location": {
            "lat": 47.96355,
            "long": 0.20622
        }
    },
    {
        "id": 10282,
        "name": "Glenn, Swanson",
        "address": "MORCELLEMENT FLEURIOT, SOLFERINO - VACOAS, BONNE TERRE",
        "location": {
            "lat": -20.2902,
            "long": 57.48441
        }
    },
    {
        "id": 10283,
        "name": "Kurt, Norton",
        "address": "RUE DES LIMITES, VILLE - NOIRE, MAHEBOURG",
        "location": {
            "lat": -20.40428,
            "long": 57.70197
        }
    },
    {
        "id": 10284,
        "name": "Don, Cobb",
        "address": "ROYAL ROAD, CAROLINE, BEL AIR",
        "location": {
            "lat": 35.31242,
            "long": -83.15771
        }
    },
    {
        "id": 10285,
        "name": "Patsy, Gross",
        "address": "CAMP DE MASQUE ROAD, MELROSE, MELROSE",
        "location": {
            "lat": -20.23535,
            "long": 57.68041
        }
    },
    {
        "id": 10286,
        "name": "Molly, Kelley",
        "address": "FELICO LANE, PALMA, QUATRE BORNES",
        "location": {
            "lat": -20.27907,
            "long": 57.46012
        }
    },
    {
        "id": 10287,
        "name": "Myra, Thompson",
        "address": "ROYAL ROAD, MAHEBOURG, MAHEBOURG",
        "location": {
            "lat": -20.36625,
            "long": 57.70379
        }
    },
    {
        "id": 10288,
        "name": "Floyd, Jordan",
        "address": "AMEERALLY LANE, MESNIL, PHOENIX",
        "location": {
            "lat": -20.2905,
            "long": 57.51279
        }
    },
    {
        "id": 10289,
        "name": "Jenny, Duncan",
        "address": "5, SSR ELIZABETH VILLE, BAIE DU TOMBEAU, BAIE DU TOMBEAU",
        "location": {
            "lat": -20.13128,
            "long": 57.50393
        }
    },
    {
        "id": 10290,
        "name": "Tom, Leonard",
        "address": "FLAMINGO ROAD, ALBION, ALBION",
        "location": {
            "lat": -20.20825,
            "long": 57.41522
        }
    },
    {
        "id": 10291,
        "name": "Jerome, McKinney",
        "address": "LORETTO CONVENT STREET, CUREPIPE, CUREPIPE",
        "location": {
            "lat": -20.30973,
            "long": 57.52713
        }
    },
    {
        "id": 10292,
        "name": "Minnie, Garner",
        "address": "94A. ALBERT DARUTY DE GRAND PR, CUREPIPE ROAD, CUREPIPE",
        "location": {
            "lat": 55.14321,
            "long": -118.82504
        }
    },
    {
        "id": 10293,
        "name": "Alex, Adams",
        "address": "12, CANDOS LANE, QUATRE BORNES, QUATRE BORNES",
        "location": {
            "lat": -20.27336,
            "long": 57.47761
        }
    },
    {
        "id": 10294,
        "name": "Kelly, Allen",
        "address": "Avenue Dahlia, Britannia, Britannia",
        "location": {
            "lat": 43.2441,
            "long": -79.79917
        }
    },
    {
        "id": 10295,
        "name": "Kristina, Curry",
        "address": "BOIS CHERI ROAD, MOKA, MOKA",
        "location": {
            "lat": -20.21937,
            "long": 57.50923
        }
    },
    {
        "id": 10296,
        "name": "Janice, Williams",
        "address": "NO. 5 SOLFERINO, VACOAS, VACOAS",
        "location": {
            "lat": -20.29299,
            "long": 57.48041
        }
    },
    {
        "id": 10297,
        "name": "Shaun, Craig",
        "address": "DESVEAUX LANE,, LES CASERNES, CUREPIPE",
        "location": {
            "lat": -20.30361,
            "long": 57.52898
        }
    },
    {
        "id": 10298,
        "name": "Billie, Franklin",
        "address": "ROUTE PARISOT, MESNIL, CAMP FOUQUEREAUX",
        "location": {
            "lat": 44.26449,
            "long": 1.85329
        }
    },
    {
        "id": 10299,
        "name": "Steve, Johnson",
        "address": "26, ROUTE BASSIN, QUATRE BORNES, QUATRE BORNES",
        "location": {
            "lat": 47.45591,
            "long": 7.14264
        }
    },
    {
        "id": 10300,
        "name": "Elaine, Green",
        "address": "41, AVE DES ORCHIDEES, SODNAC - QUATRE BORNES, SODNAC",
        "location": {
            "lat": -20.267,
            "long": 57.48707
        }
    },
    {
        "id": 10301,
        "name": "Dean, Barber",
        "address": "ROYAL ROAD, MARE D'ALBERT, MARE D'ALBERT",
        "location": {
            "lat": 41.71618,
            "long": 2.9332
        }
    },
    {
        "id": 10302,
        "name": "Mattie, Haynes",
        "address": "18, DAUBIN STREET, VALLEE DES PRETES, PORT LOUIS",
        "location": {
            "lat": -20.22251,
            "long": 57.4684
        }
    },
    {
        "id": 10303,
        "name": "Claude, Hopkins",
        "address": "10, Cit Laval Street, PORT LOUIS, PORT LOUIS",
        "location": {
            "lat": -20.15619,
            "long": 57.5156
        }
    },
    {
        "id": 10304,
        "name": "Maurice, Richards",
        "address": "LOT NO. 557, MORC LES RESIDENCES PINEWOOD, WOOTON CAMP FOUQUEREAUX",
        "location": {
            "lat": 16.2565,
            "long": -61.57515
        }
    },
    {
        "id": 10305,
        "name": "Margie, Freeman",
        "address": "RAMNATH MANDIR AVENUE,, SCHEONFIELD ROAD,, RIVIERE DU REMPART",
        "location": {
            "lat": -20.10048,
            "long": 57.68363
        }
    },
    {
        "id": 10306,
        "name": "Peggy, Hall",
        "address": "30, AVENUE DES BOIS NOIRS, MORCELLEMENT REUNION, FLOREAL",
        "location": {
            "lat": -20.88095,
            "long": 55.44205
        }
    },
    {
        "id": 10307,
        "name": "Jane, Frank",
        "address": "ROYAL ROAD, BRISEE VERDIERE, BON ACCUEIL/FLACQ, BON ACCUEIL/FLACQ",
        "location": {
            "lat": -20.18508,
            "long": 57.64265
        }
    },
    {
        "id": 10308,
        "name": "Mathew, Steele",
        "address": "ALLEE PITOT, MOUNT ORY, MOKA",
        "location": {
            "lat": -20.21795,
            "long": 57.48933
        }
    },
    {
        "id": 10309,
        "name": "Ruth, Floyd",
        "address": "ARYA SAMAJ LANE, GROS BILLOT, NEW GROVE, NEW GROVE",
        "location": {
            "lat": 40.85306,
            "long": -73.11499
        }
    },
    {
        "id": 10310,
        "name": "Jimmie, Thornton",
        "address": "LE HOCHET, TERRE ROUGE, TERRE ROUGE",
        "location": {
            "lat": -20.13348,
            "long": 57.51835
        }
    },
    {
        "id": 10311,
        "name": "Jill, Welch",
        "address": "82, NHDC, UPPER DAGOTIERE, DAGOTIERE",
        "location": {
            "lat": -20.24163,
            "long": 57.56695
        }
    },
    {
        "id": 10312,
        "name": "Raul, James",
        "address": "TOORY ROAD, BON ACCUEIL, BON ACCUEIL",
        "location": {
            "lat": -20.17271,
            "long": 57.66865
        }
    },
    {
        "id": 10313,
        "name": "Diana, Clarke",
        "address": "3, CLAIRFONDS, VACOAS, VACOAS",
        "location": {
            "lat": -20.29505,
            "long": 57.48437
        }
    },
    {
        "id": 10314,
        "name": "Marcia, Bryant",
        "address": "ENGRAIS CATHAN STREET, EAU COULEE, CUREPIPE",
        "location": {
            "lat": -20.30041,
            "long": 57.5257
        }
    },
    {
        "id": 10315,
        "name": "Esther, Logan",
        "address": "ROYAL ROAD, PAMPLEMOUSSES, PAMPLEMOUSSES",
        "location": {
            "lat": -20.09114,
            "long": 57.53007
        }
    },
    {
        "id": 10316,
        "name": "Marc, Pittman",
        "address": "ROYAL ROAD, LA SOURDINE - L'ESCALIER, L`ESCALIER",
        "location": {
            "lat": -20.48796,
            "long": 57.6153
        }
    },
    {
        "id": 10317,
        "name": "Jack, Hanson",
        "address": "ST ANNE ROAD, STANLEY, ROSE HILL",
        "location": {
            "lat": -20.24767,
            "long": 57.46416
        }
    },
    {
        "id": 10318,
        "name": "Shannon, Pearson",
        "address": "SIR HESKETH, BELL AVENUE, FLOREAL",
        "location": {
            "lat": 50.66244,
            "long": 5.66206
        }
    },
    {
        "id": 10319,
        "name": "Marsha, Lawson",
        "address": "10 AVENUE DES AIGLES, SODNAC, QUATRE BORNES",
        "location": {
            "lat": -20.27095,
            "long": 57.48862
        }
    },
    {
        "id": 10320,
        "name": "Wilma, Norman",
        "address": "2 BIS, BLONDEAU STREET, ROSE HILL, ROSE HILL",
        "location": {
            "lat": 38.63462,
            "long": -94.10206
        }
    },
    {
        "id": 10321,
        "name": "Pauline, Cooper",
        "address": "PETIT CAMP, PHOENIX, PETIT CAMP",
        "location": {
            "lat": 48.7688,
            "long": -3.42632
        }
    },
    {
        "id": 10322,
        "name": "Terrance, McCormick",
        "address": "COLONEL YELDHAM ROAD, L'ESPERANCE PITON, L'ESPERANCE PITON",
        "location": {
            "lat": -20.09417,
            "long": 57.63592
        }
    },
    {
        "id": 10323,
        "name": "Gladys, Vasquez",
        "address": "175, AVENUE JOHN KENNEDY, VACOAS, VACOAS",
        "location": {
            "lat": 46.79485,
            "long": 1.69181
        }
    },
    {
        "id": 10324,
        "name": "Wanda, Pittman",
        "address": "49, SATHIADEV SALABEE, CLAIRFONDS NO 1 - PHOENIX, PHOENIX",
        "location": {}
    },
    {
        "id": 10325,
        "name": "Allen, Ellis",
        "address": "347 AVENUE ROSES, MORCELLEMENT MONTREAL, COROMANDEL",
        "location": {
            "lat": 45.47974,
            "long": -73.58044
        }
    },
    {
        "id": 10326,
        "name": "Franklin, Bryant",
        "address": "GEBERT ROAD, ROSE BELLE, ROSE BELLE",
        "location": {
            "lat": -20.40854,
            "long": 57.6067
        }
    },
    {
        "id": 10327,
        "name": "Lydia, Gutierrez",
        "address": "MATADEEN STREET, RIVIERE DES ANGUILLES, RIVIERE DES ANGUILLES",
        "location": {
            "lat": -20.4909,
            "long": 57.55713
        }
    },
    {
        "id": 10328,
        "name": "Wallace, Hopkins",
        "address": "ROYAL ROAD, KESTREL LANE, TERRE ROUGE",
        "location": {
            "lat": -20.12758,
            "long": 57.53206
        }
    },
    {
        "id": 10329,
        "name": "Kathryn, Stephens",
        "address": "JOOMUN ROAD, RIVIERE DU REMPART, RIVIERE DU REMPART",
        "location": {
            "lat": -20.10276,
            "long": 57.6964
        }
    },
    {
        "id": 10330,
        "name": "Bernard, Sharp",
        "address": "BISWA LANE, PLAINE MAGNIEN, PLAINE MAGNIEN",
        "location": {
            "lat": -20.43201,
            "long": 57.66077
        }
    },
    {
        "id": 10331,
        "name": "Katie, Drake",
        "address": "ROYAL ROAD, ROCHE NOIRES, ROCHE NOIRES",
        "location": {
            "lat": -20.0979,
            "long": 57.70656
        }
    },
    {
        "id": 10332,
        "name": "Ken, Oliver",
        "address": "SANS SOUCI ROAD, MONTAGNE BLANCHE, MONTAGNE BLANCHE",
        "location": {
            "lat": -20.29459,
            "long": 57.6603
        }
    },
    {
        "id": 10333,
        "name": "Gayle, Terry",
        "address": "MISSION CROSS ROAD, LALLMATIE, LALLMATIE",
        "location": {
            "lat": -20.18208,
            "long": 57.67012
        }
    },
    {
        "id": 10334,
        "name": "Danny, Norton",
        "address": "17 SPARROW ROAD, POINTE AUX SABLES, POINTE AUX SABLES",
        "location": {
            "lat": -20.17059,
            "long": 57.45137
        }
    },
    {
        "id": 10335,
        "name": "Yvonne, Patton",
        "address": "CHANDRA LANE, LA ROSA - NEW GROVE, NEW GROVE",
        "location": {
            "lat": -20.41581,
            "long": 57.62188
        }
    },
    {
        "id": 10336,
        "name": "Jenny, Johnston",
        "address": "LA CHAUX STREET, MAHEBOURG, MAHEBOURG",
        "location": {
            "lat": -20.41408,
            "long": 57.70726
        }
    },
    {
        "id": 10337,
        "name": "Tiffany, Sims",
        "address": "24 D`EPINAY AVENUE, LANE 3 - QUATRE BORNES, QUATRE BORNES",
        "location": {
            "lat": -20.26072,
            "long": 57.47858
        }
    },
    {
        "id": 10338,
        "name": "Malcolm, Black",
        "address": "GEETANJALI ROAD, 3 BOUTIQUES TRIOLET, TRIOLET",
        "location": {
            "lat": -20.05173,
            "long": 57.55078
        }
    },
    {
        "id": 10339,
        "name": "Kellie, Brady",
        "address": "OLD FLACQ ROAD, KHOYRATTY-D'EPINAY, KHOYRATTY",
        "location": {
            "lat": -20.12814,
            "long": 57.5921
        }
    },
    {
        "id": 10340,
        "name": "Guillermo, Moody",
        "address": "AVENUE JOHN KENNEDY, VACOAS, VACOAS",
        "location": {
            "lat": -20.30572,
            "long": 57.492
        }
    },
    {
        "id": 10341,
        "name": "Rodney, Greene",
        "address": "RUE HORTENCIA, VERDUN, VERDUN",
        "location": {
            "lat": 46.07885,
            "long": -64.8011
        }
    },
    {
        "id": 10342,
        "name": "Ralph, Newton",
        "address": "BABOOLALL STREET, MARE D`ALBERT, MARE D`ALBERT",
        "location": {
            "lat": 41.71618,
            "long": 2.9332
        }
    },
    {
        "id": 10343,
        "name": "Crystal, Caldwell",
        "address": "68 LA CROIX STREET, FOREST SIDE - CUREPIPE, FOREST SIDE",
        "location": {
            "lat": 38.32621,
            "long": -91.96325
        }
    },
    {
        "id": 10344,
        "name": "Kristina, Francis",
        "address": "ROYAL ROAD, PLAINE DES PAPAYES, PLAINE DES PAPAYES",
        "location": {
            "lat": -20.02792,
            "long": 57.5983
        }
    },
    {
        "id": 10345,
        "name": "Jackie, Green",
        "address": "ROYAL ROAD, L'ESPERANCE QUARTIER MILITAIRE, L'ESPERANCE",
        "location": {}
    },
    {
        "id": 10346,
        "name": "Kathleen, Hayes",
        "address": "39, AVENUE PIGEOT, PLAISANCE - ROSE HILL, PLAISANCE",
        "location": {
            "lat": -37.87872,
            "long": 145.02237
        }
    },
    {
        "id": 10347,
        "name": "Byron, Mann",
        "address": "Lot 41, Morcellement VRS11, L'Avenir, St- Pierre",
        "location": {
            "lat": 43.44516,
            "long": 6.64257
        }
    },
    {
        "id": 10348,
        "name": "Jenny, Hudson",
        "address": "ROYAL ROAD, TROU D'EAU DOUCE - FLACQ, TROU D'EAU DOUCE",
        "location": {
            "lat": -20.24201,
            "long": 57.78594
        }
    },
    {
        "id": 10349,
        "name": "Marlene, Rose",
        "address": "PETIT CHEMIN, BEL AIR RIVIERE SECHE, BEL AIR RIVIERE SECHE",
        "location": {
            "lat": -20.2584,
            "long": 57.75401
        }
    },
    {
        "id": 10350,
        "name": "Rosie, Ruiz",
        "address": "CALLYCHURN LANE, CARREAU LALIANE - VACOAS, VACOAS",
        "location": {
            "lat": -20.28482,
            "long": 57.48669
        }
    },
    {
        "id": 10351,
        "name": "Alvin, Lynch",
        "address": "AVENUE PERE DUFFAY, ROCHE BRUNES, PLAISANCE CAMP LEVIEUX",
        "location": {
            "lat": -20.23916,
            "long": 57.45695
        }
    },
    {
        "id": 10352,
        "name": "Bobby, Lyons",
        "address": "MAHATMA GANDHI LANE, ST JULIEN D'HOTMAN - FLACQ, ST JULIEN D'HOTMAN",
        "location": {
            "lat": -20.23344,
            "long": 57.63602
        }
    },
    {
        "id": 10353,
        "name": "Kay, Smith",
        "address": "GALEA 2 - PARISOT STREET, MESNIL - PHOENIX, MESNIL",
        "location": {}
    },
    {
        "id": 10354,
        "name": "Manuel, Rodgers",
        "address": "RICHE MARE, CENTRAL FLACQ, RICHE MARE",
        "location": {
            "lat": -20.20216,
            "long": 57.7316
        }
    },
    {
        "id": 10355,
        "name": "Rick, Lyons",
        "address": "9, DR YTHIER AVENUE, BELLE ROSE, BELLE ROSE",
        "location": {
            "lat": 41.34335,
            "long": -71.77514
        }
    },
    {
        "id": 10356,
        "name": "Lila, Jordan",
        "address": "29, AVENUE AUTRUCHES, HILCREST - SODNAC, QUATRE-BORNES",
        "location": {
            "lat": -20.26795,
            "long": 57.48627
        }
    },
    {
        "id": 10357,
        "name": "Elsie, Buchanan",
        "address": "OLD GRAND PORT ROAD, , QUARTIER MILITAIRE",
        "location": {
            "lat": -20.24797,
            "long": 57.59688
        }
    },
    {
        "id": 10358,
        "name": "Jeanette, Neal",
        "address": "NARENDRA LANE, MARE D`ALBERT, MARE D`ALBERT",
        "location": {
            "lat": 41.71618,
            "long": 2.9332
        }
    },
    {
        "id": 10359,
        "name": "Joanne, Mullins",
        "address": "SOLFERINO NO. 2, VACOAS, SOLFERINO NO. 2",
        "location": {
            "lat": -20.29218,
            "long": 57.47932
        }
    },
    {
        "id": 10360,
        "name": "Marsha, Harrington",
        "address": "RUE DES VERGUES, GLEN PARK - VACOAS, GLEN PARK",
        "location": {
            "lat": -20.32906,
            "long": 57.48509
        }
    },
    {
        "id": 10361,
        "name": "Nicholas, Cummings",
        "address": "TEMPLE ROAD, QUARTIER MILITAIRE, ",
        "location": {
            "lat": -20.25694,
            "long": 57.56412
        }
    },
    {
        "id": 10362,
        "name": "Curtis, Rogers",
        "address": "TRIANGLE ROAD, GOOLDANDS, GOODLANDS",
        "location": {
            "lat": -20.0339,
            "long": 57.65783
        }
    },
    {
        "id": 10363,
        "name": "Jimmy, Bell",
        "address": "FOOTBALL GROUND ROAD, CHEMIN GRENIER, CHEMIN GRENIER",
        "location": {
            "lat": -20.49123,
            "long": 57.48138
        }
    },
    {
        "id": 10364,
        "name": "Marilyn, Steele",
        "address": "JOOMUN ROAD, RIVIERE DU REMPART, RIVIERE DU REMPART",
        "location": {
            "lat": -20.10276,
            "long": 57.6964
        }
    },
    {
        "id": 10365,
        "name": "Ray, Arnold",
        "address": "SHIVALA ROAD, BARAMIA - ROSE BELLE, ROSE BELLE",
        "location": {
            "lat": -20.25513,
            "long": 57.72607
        }
    },
    {
        "id": 10366,
        "name": "Dianne, Sullivan",
        "address": "20, ROYAL ROAD, UNION PARK, UNION PARK",
        "location": {
            "lat": 55.76839,
            "long": -2.01394
        }
    },
    {
        "id": 10367,
        "name": "Kent, Beck",
        "address": "VILLAGE HALL LANE, LAVENTURE, FLACQ",
        "location": {
            "lat": -20.27648,
            "long": 57.36891
        }
    },
    {
        "id": 10368,
        "name": "Lucy, Erickson",
        "address": "SCHOOL LANE, ST JULIEN VILLAGE, ST JULIEN VILLAGE",
        "location": {
            "lat": -20.20765,
            "long": 57.6924
        }
    },
    {
        "id": 10369,
        "name": "Karl, Maldonado",
        "address": "KALIMAYE ROAD, PLAINE DES ROCHES, PLAINE DES ROCHES",
        "location": {
            "lat": -20.11888,
            "long": 57.69727
        }
    },
    {
        "id": 10370,
        "name": "Nathan, Wheeler",
        "address": "JAGRITI ROAD, 7TH MILE - TRIOLET, TRIOLET",
        "location": {
            "lat": -20.07502,
            "long": 57.54604
        }
    },
    {
        "id": 10371,
        "name": "Jean, Perkins",
        "address": "Diligence Street, Morc Promo Holiday, BALACLAVA",
        "location": {
            "lat": 53.32563,
            "long": -3.82958
        }
    }
]